{
  "Elazığ": [
    {
      "name": "Hankendi",
      "district": null,
      "lat": 38.5747831,
      "lng": 39.0603733
    },
    {
      "name": "Harput",
      "district": null,
      "lat": 38.7046229,
      "lng": 39.2521174
    },
    {
      "name": "Karşıbağ",
      "district": null,
      "lat": 38.5862237,
      "lng": 39.3269454
    },
    {
      "name": "Aşağı Demirtaş",
      "district": null,
      "lat": 38.6013902,
      "lng": 39.1116617
    },
    {
      "name": "Yemişlik",
      "district": null,
      "lat": 38.6141237,
      "lng": 39.2026031
    },
    {
      "name": "Şahinkaya",
      "district": null,
      "lat": 38.6935532,
      "lng": 39.1434904
    },
    {
      "name": "Venk",
      "district": null,
      "lat": 38.6082118,
      "lng": 39.1676707
    },
    {
      "name": "Aşağı Kacarlar",
      "district": null,
      "lat": 38.9407925,
      "lng": 39.5262977
    },
    {
      "name": "Karadere",
      "district": null,
      "lat": 38.8822891,
      "lng": 39.2792278
    },
    {
      "name": "Dilek",
      "district": null,
      "lat": 38.5843633,
      "lng": 39.0250321
    },
    {
      "name": "Kesikköprü",
      "district": null,
      "lat": 38.5964017,
      "lng": 39.0850831
    },
    {
      "name": "Cabbaruşağı",
      "district": null,
      "lat": 38.6547876,
      "lng": 38.8681806
    },
    {
      "name": "Kırklar",
      "district": null,
      "lat": 38.7741349,
      "lng": 38.8129271
    },
    {
      "name": "Derince",
      "district": null,
      "lat": 38.6528834,
      "lng": 38.8312168
    },
    {
      "name": "Karşıyaka",
      "district": null,
      "lat": 38.6787429,
      "lng": 38.8575224
    },
    {
      "name": "Mandıra",
      "district": null,
      "lat": 38.8312158,
      "lng": 38.8423013
    },
    {
      "name": "Camikebir Mah.",
      "district": null,
      "lat": 38.8531912,
      "lng": 39.3345326
    },
    {
      "name": "Derebaşı Mah.",
      "district": null,
      "lat": 38.8451725,
      "lng": 39.3427683
    },
    {
      "name": "İstiklal Mah.",
      "district": null,
      "lat": 38.8677068,
      "lng": 39.3245813
    },
    {
      "name": "Soğukpınar Mah.",
      "district": null,
      "lat": 38.8655058,
      "lng": 39.3153044
    },
    {
      "name": "Kaledibi Mah.",
      "district": null,
      "lat": 38.8568366,
      "lng": 39.290375
    },
    {
      "name": "Aşörgen",
      "district": null,
      "lat": 38.7137699,
      "lng": 38.8378293
    },
    {
      "name": "Aşağıdemirli",
      "district": null,
      "lat": 38.6957024,
      "lng": 38.8139555
    },
    {
      "name": "Yukarıdemirli",
      "district": null,
      "lat": 38.6920285,
      "lng": 38.8084485
    },
    {
      "name": "Şahverdiyen",
      "district": null,
      "lat": 38.6663897,
      "lng": 38.8270311
    },
    {
      "name": "Çakmaklı",
      "district": null,
      "lat": 38.6923424,
      "lng": 38.8203408
    },
    {
      "name": "Ciban",
      "district": null,
      "lat": 38.684154,
      "lng": 38.8265515
    },
    {
      "name": "Şüşan",
      "district": null,
      "lat": 38.6684013,
      "lng": 38.8264347
    },
    {
      "name": "Abdullah Paşa Mah.",
      "district": null,
      "lat": 38.6560704,
      "lng": 39.1472807
    },
    {
      "name": "Ataşehir Mah.",
      "district": null,
      "lat": 38.6605826,
      "lng": 39.1765747
    },
    {
      "name": "Sürsürü Mah.",
      "district": null,
      "lat": 38.6668219,
      "lng": 39.1986456
    },
    {
  "name": "Cumhuriyet Mah.",
  "district": "Merkez",
  "lat": 38.6748, 
  "lng": 39.1835
},
    {
      "name": "Olgunlar Mah.",
      "district": null,
      "lat": 38.6662459,
      "lng": 39.2087305
    },
    {
      "name": "Kültür Mah.",
      "district": null,
      "lat": 38.6736328,
      "lng": 39.2118574
    },
    {
      "name": "Nail Bey Mah.",
      "district": null,
      "lat": 38.674274,
      "lng": 39.2194646
    },
    {
      "name": "Akpınar Mah.",
      "district": null,
      "lat": 38.6700405,
      "lng": 39.2197
    },
    {
      "name": "Sarayatik Mah.",
      "district": null,
      "lat": 38.6702379,
      "lng": 39.2249156
    },
    {
      "name": "Rüstem Paşa Mah.",
      "district": null,
      "lat": 38.670866,
      "lng": 39.2283646
    },
    {
      "name": "Sanayi Mah.",
      "district": null,
      "lat": 38.6668175,
      "lng": 39.2456814
    },
    {
      "name": "Mustafa Paşa Mah.",
      "district": null,
      "lat": 38.6717367,
      "lng": 39.2354418
    },
    {
      "name": "Çarşı Mah.",
      "district": null,
      "lat": 38.6734749,
      "lng": 39.2256699
    },
    {
      "name": "Salı Baba Mah.",
      "district": null,
      "lat": 38.6684218,
      "lng": 39.252411
    },
    {
      "name": "Gümüş Kavak",
      "district": null,
      "lat": 38.6398323,
      "lng": 39.2504015
    },
    {
      "name": "Bahçekapı",
      "district": null,
      "lat": 38.5659099,
      "lng": 39.2698131
    },
    {
      "name": "Güntaşı",
      "district": null,
      "lat": 38.5793297,
      "lng": 39.3537403
    },
    {
      "name": "Yenice",
      "district": null,
      "lat": 38.5813679,
      "lng": 39.2811699
    },
    {
      "name": "Akmezra Sahil Önü Mah.",
      "district": null,
      "lat": 38.6439199,
      "lng": 39.406229
    },
    {
      "name": "Org. Eşref Bitlis Mah.",
      "district": null,
      "lat": 38.6386192,
      "lng": 39.3748517
    },
    {
      "name": "Gülpınar Mah.",
      "district": null,
      "lat": 38.6516167,
      "lng": 39.3513985
    },
    {
      "name": "Sanayi Mah.",
      "district": null,
      "lat": 38.624256,
      "lng": 39.3343939
    },
    {
      "name": "Yeni Mah.",
      "district": null,
      "lat": 38.636441,
      "lng": 39.3418863
    },
    {
      "name": "Bağlar Mah.",
      "district": null,
      "lat": 38.6376746,
      "lng": 39.3439799
    },
    {
      "name": "Cumhuriyet Mah.",
      "district": null,
      "lat": 38.6396545,
      "lng": 39.3424017
    },
    {
      "name": "Konak Mah.",
      "district": null,
      "lat": 38.6092702,
      "lng": 39.3013787
    },
    {
      "name": "Merkez Mah.",
      "district": null,
      "lat": 38.6114636,
      "lng": 39.3024303
    },
    {
      "name": "Fatih Mah.",
      "district": null,
      "lat": 38.6106728,
      "lng": 39.305759
    },
    {
      "name": "Sanayi Mah.",
      "district": null,
      "lat": 38.6146304,
      "lng": 39.3005884
    },
    {
      "name": "Cumhuriyet Mah.",
      "district": null,
      "lat": 38.6135846,
      "lng": 39.3054619
    },
    {
      "name": "Yeni Bağlar Mah.",
      "district": null,
      "lat": 38.6116446,
      "lng": 39.3091286
    },
    {
      "name": "Zafer Mah.",
      "district": null,
      "lat": 38.6108403,
      "lng": 39.2459699
    },
    {
      "name": "Hürriyet Mah.",
      "district": null,
      "lat": 38.6125298,
      "lng": 39.2441403
    },
    {
      "name": "Yeşilkuşak Mah.",
      "district": null,
      "lat": 38.6194158,
      "lng": 39.2517563
    },
    {
      "name": "Yüzbaşı Mah.",
      "district": null,
      "lat": 38.6271493,
      "lng": 39.2654609
    },
    {
      "name": "Yeşilyurt Mah.",
      "district": null,
      "lat": 38.6163891,
      "lng": 39.2644901
    },
    {
      "name": "Kültür Mah.",
      "district": null,
      "lat": 38.6166619,
      "lng": 39.2689077
    },
    {
      "name": "Paşalar Mah.",
      "district": null,
      "lat": 38.6191095,
      "lng": 39.2692322
    },
    {
      "name": "Kıraç Mah.",
      "district": null,
      "lat": 38.6174513,
      "lng": 39.2790502
    },
    {
      "name": "Hilalkent Mah.",
      "district": null,
      "lat": 38.6464673,
      "lng": 39.126031
    },
    {
      "name": "Karpınar",
      "district": null,
      "lat": 38.7048105,
      "lng": 39.1471581
    },
    {
      "name": "Sipahi",
      "district": null,
      "lat": 38.6401081,
      "lng": 39.2167374
    },
    {
      "name": "Yeniköy",
      "district": null,
      "lat": 38.6341084,
      "lng": 39.1967277
    },
    {
      "name": "Yadigar",
      "district": null,
      "lat": 38.6376313,
      "lng": 39.1823299
    },
    {
      "name": "Meryem",
      "district": null,
      "lat": 38.6265398,
      "lng": 39.1735734
    },
    {
      "name": "Kengerli",
      "district": null,
      "lat": 38.6234748,
      "lng": 39.1969094
    },
    {
      "name": "Karaçor",
      "district": null,
      "lat": 38.6747224,
      "lng": 38.8177493
    },
    {
      "name": "Sugözü",
      "district": null,
      "lat": 38.7006444,
      "lng": 39.283954
    },
    {
      "name": "Göllü Bağ",
      "district": null,
      "lat": 38.7274873,
      "lng": 39.2957984
    },
    {
      "name": "Çaydaçıra Mah.",
      "district": null,
      "lat": 38.680685,
      "lng": 39.1706639
    },
    {
      "name": "Altınçevre",
      "district": null,
      "lat": 38.6127749,
      "lng": 39.2425898
    },
    {
      "name": "Safran",
      "district": null,
      "lat": 38.6904557,
      "lng": 39.2013166
    },
    {
      "name": "Ala Yaprak",
      "district": null,
      "lat": 38.7546598,
      "lng": 39.2804104
    },
    {
      "name": "mahalle",
      "district": null,
      "lat": 38.7048362,
      "lng": 39.5957994
    },
    {
      "name": "Beyyurdu",
      "district": null,
      "lat": 38.6554663,
      "lng": 39.2855479
    },
    {
      "name": "Karşıyaka Mah.",
      "district": null,
      "lat": 38.6608389,
      "lng": 39.2537975
    },
    {
      "name": "Kızılay Mah.",
      "district": null,
      "lat": 38.6613746,
      "lng": 39.24834
    },
    {
      "name": "Çatal Çeşme Mah.",
      "district": null,
      "lat": 38.6688862,
      "lng": 39.2580536
    },
    {
      "name": "Doğu Kent Mah.",
      "district": null,
      "lat": 38.6781653,
      "lng": 39.2571334
    },
    {
      "name": "Ulu Kent Mah.",
      "district": null,
      "lat": 38.6945056,
      "lng": 39.2611498
    },
    {
      "name": "Yıldız Bağları Mah.",
      "district": null,
      "lat": 38.6883038,
      "lng": 39.230552
    },
    {
      "name": "Kırklar Mah.",
      "district": null,
      "lat": 38.6768038,
      "lng": 39.2444256
    },
    {
      "name": "Aksaray Mah.",
      "district": null,
      "lat": 38.660634,
      "lng": 39.2304486
    },
    {
      "name": "Hicret Mah.",
      "district": null,
      "lat": 38.6634382,
      "lng": 39.217246
    },
    {
      "name": "Fevzi Çakmak Mah.",
      "district": null,
      "lat": 38.6843952,
      "lng": 39.2179174
    },
    {
      "name": "Esen Tepe Mah.",
      "district": null,
      "lat": 38.6931201,
      "lng": 39.2113689
    },
    {
      "name": "Üniversite Mah.",
      "district": null,
      "lat": 38.6797602,
      "lng": 39.2071115
    },
    {
      "name": "Yeni Mah.",
      "district": null,
      "lat": 38.6775937,
      "lng": 39.2172978
    },
    {
      "name": "İzzet Paşa Mah.",
      "district": null,
      "lat": 38.6762016,
      "lng": 39.221561
    },
    {
      "name": "Rızaiye Mah.",
      "district": null,
      "lat": 38.6787834,
      "lng": 39.2257266
    },
    {
      "name": "İcadiye Mah.",
      "district": null,
      "lat": 38.6751398,
      "lng": 39.2268974
    },
    {
      "name": "Güneykent Mah.",
      "district": null,
      "lat": 38.6349547,
      "lng": 39.1493081
    },
    {
      "name": "Mustafademirel",
      "district": null,
      "lat": 38.5721844,
      "lng": 38.8233018
    },
    {
      "name": "Cumhuriyet",
      "district": null,
      "lat": 38.5720586,
      "lng": 38.8286769
    },
    {
      "name": "Canbeyler",
      "district": null,
      "lat": 38.5605744,
      "lng": 38.8166177
    }
  ],
  "Diyarbakır": [
    {
      "name": "İşkar",
      "district": null,
      "lat": 38.2584951,
      "lng": 40.7797525
    },
    {
      "name": "Karaçalı",
      "district": null,
      "lat": 37.9527882,
      "lng": 40.3177794
    },
    {
      "name": "Yolaltı",
      "district": null,
      "lat": 37.9549232,
      "lng": 40.1980794
    },
    {
      "name": "Gürdoğan Mah.",
      "district": null,
      "lat": 37.9405195,
      "lng": 40.215387
    },
    {
      "name": "Dokuzçeltik",
      "district": null,
      "lat": 37.9757078,
      "lng": 40.1886928
    },
    {
      "name": "Görece",
      "district": null,
      "lat": 37.612171,
      "lng": 40.069485
    },
    {
      "name": "Güngeçti",
      "district": null,
      "lat": 38.3554265,
      "lng": 41.1229818
    },
    {
      "name": "Dönenkaya",
      "district": null,
      "lat": 38.1945517,
      "lng": 41.0956605
    },
    {
      "name": "Ulutürk Mah.",
      "district": null,
      "lat": 37.8524616,
      "lng": 40.6505117
    },
    {
      "name": "Yukarı Kılıçtaşı",
      "district": null,
      "lat": 37.972595,
      "lng": 40.2604428
    },
    {
      "name": "Terzili",
      "district": null,
      "lat": 38.1199411,
      "lng": 40.2458569
    },
    {
      "name": "Yukarı",
      "district": null,
      "lat": 38.2325953,
      "lng": 40.1141481
    },
    {
      "name": "Ortaören",
      "district": null,
      "lat": 37.8540916,
      "lng": 39.960596
    },
    {
      "name": "Çölgüzeli",
      "district": null,
      "lat": 37.9157299,
      "lng": 40.0790716
    },
    {
      "name": "Üçkuyu",
      "district": null,
      "lat": 37.9888592,
      "lng": 40.14242
    },
    {
      "name": "Köseli",
      "district": null,
      "lat": 37.843338,
      "lng": 40.607763
    },
    {
      "name": "Çarıklı",
      "district": null,
      "lat": 37.8395593,
      "lng": 40.2343011
    },
    {
      "name": "Yiğitçavuş",
      "district": null,
      "lat": 37.9430098,
      "lng": 40.2945622
    },
    {
      "name": "Talaytepe Mah.",
      "district": null,
      "lat": 37.9544161,
      "lng": 40.1256462
    },
    {
      "name": "Selahattin Eyyubi Mah.",
      "district": null,
      "lat": 37.9335635,
      "lng": 40.2023501
    },
    {
      "name": "Mevlana Halit Mah.",
      "district": null,
      "lat": 37.9281684,
      "lng": 40.2000326
    },
    {
      "name": "Şeyh Şamil Mah.",
      "district": null,
      "lat": 37.9256295,
      "lng": 40.1969426
    },
    {
      "name": "Bağcılar Mah.",
      "district": null,
      "lat": 37.9240845,
      "lng": 40.178328
    },
    {
      "name": "Yunus Emre Mah.",
      "district": null,
      "lat": 37.915051,
      "lng": 40.2055604
    },
    {
      "name": "5 Nisan Mah.",
      "district": null,
      "lat": 37.9190163,
      "lng": 40.2019511
    },
    {
      "name": "Kaynartepe Mah.",
      "district": null,
      "lat": 37.9190483,
      "lng": 40.2129926
    },
    {
      "name": "Muradiye Mah.",
      "district": null,
      "lat": 37.9171789,
      "lng": 40.2107991
    },
    {
      "name": "Fatih Mah.",
      "district": null,
      "lat": 37.9144128,
      "lng": 40.2124262
    },
    {
      "name": "Körhat Mah.",
      "district": null,
      "lat": 37.9108664,
      "lng": 40.2111385
    },
    {
      "name": "Alipınar Mah.",
      "district": null,
      "lat": 37.9073526,
      "lng": 40.2097436
    },
    {
      "name": "Feridun Mah.",
      "district": null,
      "lat": 38.1440856,
      "lng": 41.0122195
    },
    {
      "name": "Yüksek Mah.",
      "district": null,
      "lat": 38.1352726,
      "lng": 41.0373132
    },
    {
      "name": "Konak Mah.",
      "district": null,
      "lat": 38.1379455,
      "lng": 41.0143195
    },
    {
      "name": "Mescit Mah.",
      "district": null,
      "lat": 38.1401191,
      "lng": 41.0085774
    },
    {
      "name": "Tekel Mah.",
      "district": null,
      "lat": 38.1367442,
      "lng": 41.0055014
    },
    {
      "name": "Selahattin Mah.",
      "district": null,
      "lat": 38.1406485,
      "lng": 41.0051964
    },
    {
      "name": "Camii Mah.",
      "district": null,
      "lat": 38.1433628,
      "lng": 41.0072947
    },
    {
      "name": "Kale Mah.",
      "district": null,
      "lat": 38.1430911,
      "lng": 41.0030637
    },
    {
      "name": "Bahçelievler Mah.",
      "district": null,
      "lat": 38.1441694,
      "lng": 40.9978239
    },
    {
      "name": "Yenişehir Mah.",
      "district": null,
      "lat": 38.1516123,
      "lng": 40.9918752
    },
    {
      "name": "Bağlar Mah.",
      "district": null,
      "lat": 38.1492488,
      "lng": 41.0060622
    },
    {
      "name": "Barış Mah.",
      "district": null,
      "lat": 37.9209462,
      "lng": 40.1138749
    },
    {
      "name": "Fatihpaşa Mah.",
      "district": null,
      "lat": 37.9121636,
      "lng": 40.2435399
    },
    {
      "name": "Hasırlı Mah.",
      "district": null,
      "lat": 37.9088105,
      "lng": 40.2411911
    },
    {
      "name": "Cemal Yılmaz Mah.",
      "district": null,
      "lat": 37.9074862,
      "lng": 40.236473
    },
    {
      "name": "Savaş Mah.",
      "district": null,
      "lat": 37.9106755,
      "lng": 40.2379361
    },
    {
      "name": "Dabanoğlu Mah.",
      "district": null,
      "lat": 37.9125876,
      "lng": 40.2392814
    },
    {
      "name": "Cevat Paşa Mah.",
      "district": null,
      "lat": 37.9148043,
      "lng": 40.2383198
    },
    {
      "name": "Cami Nebi Mah.",
      "district": null,
      "lat": 37.9148136,
      "lng": 40.2364136
    },
    {
      "name": "İskenderpaşa Mah.",
      "district": null,
      "lat": 37.9134908,
      "lng": 40.2322085
    },
    {
      "name": "Cami Kebir Mah.",
      "district": null,
      "lat": 37.9119249,
      "lng": 40.2353952
    },
    {
      "name": "Ziya Gökalp Mah.",
      "district": null,
      "lat": 37.9081881,
      "lng": 40.2370806
    },
    {
      "name": "Süleyman Nazif Mah.",
      "district": null,
      "lat": 37.9098595,
      "lng": 40.2354204
    },
    {
      "name": "Abdaldede Mah.",
      "district": null,
      "lat": 37.9086313,
      "lng": 40.2351738
    },
    {
      "name": "Bozok",
      "district": null,
      "lat": 38.4503398,
      "lng": 40.3479228
    },
    {
      "name": "Çatmadal",
      "district": null,
      "lat": 37.5463924,
      "lng": 40.005579
    },
    {
      "name": "Şehitlik Mah.",
      "district": null,
      "lat": 37.9053197,
      "lng": 40.2200662
    },
    {
      "name": "Yenişehir Mah.",
      "district": null,
      "lat": 37.9188828,
      "lng": 40.2323098
    },
    {
      "name": "Kooperatifler Mah.",
      "district": null,
      "lat": 37.9197561,
      "lng": 40.2188694
    },
    {
      "name": "Dicle Mah.",
      "district": null,
      "lat": 37.921855,
      "lng": 40.2407145
    },
    {
      "name": "Ferit Köşk Mah.",
      "district": null,
      "lat": 37.9263631,
      "lng": 40.2371001
    },
    {
      "name": "Cumhuriyet Mah.",
      "district": null,
      "lat": 37.9358542,
      "lng": 40.2107585
    },
    {
      "name": "Yarımca",
      "district": null,
      "lat": 38.2627041,
      "lng": 41.0998406
    },
    {
      "name": "Bağıvar",
      "district": null,
      "lat": 37.8693293,
      "lng": 40.2440847
    },
    {
      "name": "Peyas Mah.",
      "district": null,
      "lat": 37.9368643,
      "lng": 40.174936
    },
    {
      "name": "Huzurevleri Mah.",
      "district": null,
      "lat": 37.9399379,
      "lng": 40.1972261
    },
    {
      "name": "Mezopotamya Mah.",
      "district": null,
      "lat": 37.9380424,
      "lng": 40.1661364
    },
    {
      "name": "Fırat Mah.",
      "district": null,
      "lat": 37.9283094,
      "lng": 40.1518709
    },
    {
      "name": "Medya Mah.",
      "district": null,
      "lat": 37.9505469,
      "lng": 40.180969
    },
    {
      "name": "Diclekent Mah.",
      "district": null,
      "lat": 37.945635,
      "lng": 40.1759556
    },
    {
      "name": "Yeniköy Mah.",
      "district": null,
      "lat": 37.9165849,
      "lng": 40.1969912
    },
    {
      "name": "Dönümlü",
      "district": null,
      "lat": 37.9565265,
      "lng": 40.2205368
    },
    {
      "name": "Aziziye Mah.",
      "district": null,
      "lat": 37.9403406,
      "lng": 40.2109601
    },
    {
      "name": "Seyrantepe Sanayi Mah.",
      "district": null,
      "lat": 37.9462755,
      "lng": 40.1946561
    },
    {
      "name": "Ali Paşa Mah.",
      "district": null,
      "lat": 37.9066336,
      "lng": 40.230931
    },
    {
      "name": "Lalebey Mah.",
      "district": null,
      "lat": 37.9091109,
      "lng": 40.2309145
    },
    {
      "name": "Melikahmet Mah.",
      "district": null,
      "lat": 37.9107385,
      "lng": 40.2309649
    },
    {
      "name": "Bahçe",
      "district": null,
      "lat": 38.2557703,
      "lng": 40.7839119
    },
    {
      "name": "Aşağı Mahalle",
      "district": null,
      "lat": 38.0631407,
      "lng": 39.3418402
    },
    {
      "name": "Orta Mahalle",
      "district": null,
      "lat": 38.0729496,
      "lng": 39.3350677
    },
    {
      "name": "Yan",
      "district": null,
      "lat": 38.0708288,
      "lng": 39.3313725
    },
    {
      "name": "Obalı",
      "district": null,
      "lat": 37.8373788,
      "lng": 40.6460322
    },
    {
      "name": "Seyrantepe Mah.",
      "district": null,
      "lat": 37.8495741,
      "lng": 40.687533
    },
    {
      "name": "Esentepe Mah.",
      "district": null,
      "lat": 37.8547105,
      "lng": 40.6749206
    },
    {
      "name": "Şentepe Mah.",
      "district": null,
      "lat": 37.8562131,
      "lng": 40.6642087
    },
    {
      "name": "Tekel Maha.",
      "district": null,
      "lat": 37.8561927,
      "lng": 40.6568587
    },
    {
      "name": "Kurtuluş Mah.",
      "district": null,
      "lat": 37.8500951,
      "lng": 40.6625903
    },
    {
      "name": "Altıok Mah.",
      "district": null,
      "lat": 37.8494372,
      "lng": 40.6657598
    },
    {
      "name": "Dicle Mah.",
      "district": null,
      "lat": 37.8422537,
      "lng": 40.6643454
    },
    {
      "name": "Sanayi Mah.",
      "district": null,
      "lat": 37.8465143,
      "lng": 40.6806364
    },
    {
      "name": "Akpınar Mah.",
      "district": null,
      "lat": 37.8458689,
      "lng": 40.6676095
    },
    {
      "name": "Fırat Mah.",
      "district": null,
      "lat": 37.8458947,
      "lng": 40.6592244
    },
    {
      "name": "Dumlupınar Mah.",
      "district": null,
      "lat": 37.8510959,
      "lng": 40.6583341
    },
    {
      "name": "Yenişehir Mah.",
      "district": null,
      "lat": 38.2886861,
      "lng": 40.5021241
    },
    {
      "name": "Kaya Mah.",
      "district": null,
      "lat": 38.2917204,
      "lng": 40.5054556
    },
    {
      "name": "Şeyh Şerafettin Mah.",
      "district": null,
      "lat": 38.2876222,
      "lng": 40.498314
    },
    {
      "name": "Fabrika Mah.",
      "district": null,
      "lat": 37.9625666,
      "lng": 40.1799772
    },
    {
      "name": "Aşağı",
      "district": null,
      "lat": 38.2229987,
      "lng": 40.1215829
    },
    {
      "name": "Veziri",
      "district": null,
      "lat": 38.3864379,
      "lng": 40.4069963
    },
    {
      "name": "Fetih Mah.",
      "district": null,
      "lat": 37.9229589,
      "lng": 40.2599201
    },
    {
      "name": "Saray Mah.",
      "district": null,
      "lat": 38.2703014,
      "lng": 39.7605332
    },
    {
      "name": "Kemertaş Mah.",
      "district": null,
      "lat": 38.270217,
      "lng": 39.7565915
    },
    {
      "name": "Aziziye Mah.",
      "district": null,
      "lat": 38.2679581,
      "lng": 39.7604537
    },
    {
      "name": "Körtük",
      "district": null,
      "lat": 38.4542931,
      "lng": 40.6494477
    },
    {
      "name": "Çarşı",
      "district": null,
      "lat": 38.4564775,
      "lng": 40.6457141
    },
    {
      "name": "Müminağa",
      "district": null,
      "lat": 38.4564775,
      "lng": 40.6501773
    },
    {
      "name": "Şaar",
      "district": null,
      "lat": 38.4552173,
      "lng": 40.6532028
    },
    {
      "name": "Karahasan",
      "district": null,
      "lat": 38.4535971,
      "lng": 40.6423005
    },
    {
      "name": "Mulla",
      "district": null,
      "lat": 38.4592668,
      "lng": 40.6463364
    },
    {
      "name": "Kelvan",
      "district": null,
      "lat": 38.4600229,
      "lng": 40.6498554
    },
    {
      "name": "Yeşilburç",
      "district": null,
      "lat": 38.4585947,
      "lng": 40.6540182
    },
    {
      "name": "Yenişehir",
      "district": null,
      "lat": 38.4616803,
      "lng": 40.646455
    },
    {
      "name": "Kali",
      "district": null,
      "lat": 38.4609974,
      "lng": 40.6442121
    },
    {
      "name": "Delvan",
      "district": null,
      "lat": 38.4638537,
      "lng": 40.6437185
    },
    {
      "name": "Camikebir",
      "district": null,
      "lat": 38.4684403,
      "lng": 40.6418517
    },
    {
      "name": "Merkez Eski Mah.",
      "district": null,
      "lat": 38.500902,
      "lng": 41.007585
    },
    {
      "name": "Merkez Yeni Mah.",
      "district": null,
      "lat": 38.4987944,
      "lng": 41.0105569
    },
    {
      "name": "Turgut Özal Mah.",
      "district": null,
      "lat": 38.4949823,
      "lng": 41.0116298
    },
    {
      "name": "Yeşilköy",
      "district": null,
      "lat": 38.5093658,
      "lng": 41.0148661
    },
    {
      "name": "Tepecik",
      "district": null,
      "lat": 38.5123209,
      "lng": 41.0209601
    },
    {
      "name": "Topalan",
      "district": null,
      "lat": 38.2548277,
      "lng": 40.780048
    },
    {
      "name": "Cami",
      "district": null,
      "lat": 38.2532691,
      "lng": 40.7808849
    },
    {
      "name": "Elhuvan",
      "district": null,
      "lat": 38.2547856,
      "lng": 40.7824191
    },
    {
      "name": "Hürriyet",
      "district": null,
      "lat": 38.2503362,
      "lng": 40.7827548
    },
    {
      "name": "Merkez",
      "district": null,
      "lat": 38.4118501,
      "lng": 40.3939976
    },
    {
      "name": "Çarşı",
      "district": null,
      "lat": 38.41234,
      "lng": 40.3924927
    },
    {
      "name": "Zirve",
      "district": null,
      "lat": 38.4136046,
      "lng": 40.3927334
    },
    {
      "name": "Dereli",
      "district": null,
      "lat": 38.4125064,
      "lng": 40.3901498
    },
    {
      "name": "Kemaliye Mah.",
      "district": null,
      "lat": 38.2685965,
      "lng": 39.762162
    },
    {
      "name": "Şirinevler Mah.",
      "district": null,
      "lat": 38.2643407,
      "lng": 39.7555719
    },
    {
      "name": "İstasyon Mah.",
      "district": null,
      "lat": 38.2607685,
      "lng": 39.7565243
    },
    {
      "name": "Bagür Mah.",
      "district": null,
      "lat": 38.2618307,
      "lng": 39.7595944
    },
    {
      "name": "Sanayi Mah.",
      "district": null,
      "lat": 38.2606046,
      "lng": 39.7668248
    },
    {
      "name": "Fevzi Çakmak Mah.",
      "district": null,
      "lat": 38.2663403,
      "lng": 39.7614769
    },
    {
      "name": "Namık Kemal Mah.",
      "district": null,
      "lat": 38.2661838,
      "lng": 39.764992
    },
    {
      "name": "Adnan Menderes Mah.",
      "district": null,
      "lat": 38.2638791,
      "lng": 39.7696348
    },
    {
      "name": "Fatih Mah.",
      "district": null,
      "lat": 38.2684074,
      "lng": 39.7693451
    },
    {
      "name": "Yukarı Mahalle",
      "district": null,
      "lat": 38.0762118,
      "lng": 39.3349295
    },
    {
      "name": "Tepe",
      "district": null,
      "lat": 38.1364438,
      "lng": 39.4526029
    },
    {
      "name": "Çukur",
      "district": null,
      "lat": 38.1348742,
      "lng": 39.4494593
    },
    {
      "name": "Saray",
      "district": null,
      "lat": 38.1364185,
      "lng": 39.4493091
    },
    {
      "name": "Kala",
      "district": null,
      "lat": 38.1348958,
      "lng": 39.4461369
    },
    {
      "name": "Karşıyaka Mah.",
      "district": null,
      "lat": 38.2121929,
      "lng": 39.2933965
    },
    {
      "name": "Camiisuk Mah.",
      "district": null,
      "lat": 38.2121399,
      "lng": 39.2877094
    },
    {
      "name": "Camiikebir Mah.",
      "district": null,
      "lat": 38.2113248,
      "lng": 39.2868688
    },
    {
      "name": "Yeşiltepe",
      "district": null,
      "lat": 38.37588,
      "lng": 40.0737905
    },
    {
      "name": "Çelebi",
      "district": null,
      "lat": 38.3731884,
      "lng": 40.0807428
    },
    {
      "name": "15 Temmuz",
      "district": null,
      "lat": 38.3696556,
      "lng": 40.0693273
    },
    {
      "name": "Bağlarbaşı",
      "district": null,
      "lat": 38.3745847,
      "lng": 40.071516
    },
    {
      "name": "Fatih Mah.",
      "district": null,
      "lat": 37.8501202,
      "lng": 40.6712579
    },
    {
      "name": "Gazi",
      "district": null,
      "lat": 37.7120552,
      "lng": 40.4271769
    },
    {
      "name": "Yenimahalle",
      "district": null,
      "lat": 37.7198294,
      "lng": 40.4219627
    },
    {
      "name": "Yeşil Mahalle",
      "district": null,
      "lat": 37.7242593,
      "lng": 40.4198169
    },
    {
      "name": "Fatih",
      "district": null,
      "lat": 37.7206611,
      "lng": 40.4149246
    },
    {
      "name": "Eski Mahalle",
      "district": null,
      "lat": 37.7269239,
      "lng": 40.4162764
    },
    {
      "name": "Cumhuriyet",
      "district": null,
      "lat": 37.7245648,
      "lng": 40.4111695
    },
    {
      "name": "Serapgüzeli",
      "district": null,
      "lat": 37.9057878,
      "lng": 40.0816011
    },
    {
      "name": "Dere",
      "district": null,
      "lat": 38.2385509,
      "lng": 40.0675893
    },
    {
      "name": "Kale",
      "district": null,
      "lat": 38.2572393,
      "lng": 40.0866759
    },
    {
      "name": "Yenişehir",
      "district": null,
      "lat": 38.2593202,
      "lng": 40.0843048
    },
    {
      "name": "Gündoğuran",
      "district": null,
      "lat": 38.2572983,
      "lng": 40.0809038
    },
    {
      "name": "Kooperatif Mah.",
      "district": null,
      "lat": 37.830504,
      "lng": 40.661115
    },
    {
      "name": "Dicle Mah.",
      "district": null,
      "lat": 38.2508932,
      "lng": 39.7848298
    },
    {
      "name": "Makam Dağı Mah.",
      "district": null,
      "lat": 38.2717459,
      "lng": 39.7889663
    },
    {
      "name": "Leylek",
      "district": null,
      "lat": 38.0452944,
      "lng": 40.0648105
    }
  ],
  "Malatya": [
    {
      "name": "Eski Görgü",
      "district": null,
      "lat": 38.2628702,
      "lng": 38.1111329
    },
    {
      "name": "Yakınca",
      "district": null,
      "lat": 38.3048961,
      "lng": 38.2368907
    },
    {
      "name": "Yüğütler",
      "district": null,
      "lat": 38.7368649,
      "lng": 37.9416582
    },
    {
      "name": "Bostanbaşı",
      "district": null,
      "lat": 38.3123241,
      "lng": 38.2510347
    },
    {
      "name": "Cecimli",
      "district": null,
      "lat": 38.5970548,
      "lng": 37.8700991
    },
    {
      "name": "Çelikli",
      "district": null,
      "lat": 38.684063,
      "lng": 37.856651
    },
    {
      "name": "Bulgurlu",
      "district": null,
      "lat": 38.3576252,
      "lng": 38.4475723
    },
    {
      "name": "Hanımınçiftliği",
      "district": null,
      "lat": 38.3790243,
      "lng": 38.3356541
    },
    {
      "name": "Hatunsuyu",
      "district": null,
      "lat": 38.4181826,
      "lng": 38.3111137
    },
    {
      "name": "Konak Mah.",
      "district": null,
      "lat": 38.2986923,
      "lng": 38.2971526
    },
    {
      "name": "Orduzu",
      "district": null,
      "lat": 38.3732542,
      "lng": 38.3633993
    },
    {
      "name": "Çamurlu",
      "district": null,
      "lat": 38.3368875,
      "lng": 38.4162205
    },
    {
      "name": "Gövdeli Evler",
      "district": null,
      "lat": 37.9809504,
      "lng": 37.7235883
    },
    {
      "name": "Çerme",
      "district": null,
      "lat": 38.7740346,
      "lng": 37.8853806
    },
    {
      "name": "Bayhacı",
      "district": null,
      "lat": 38.8195005,
      "lng": 37.8786952
    },
    {
      "name": "Sayfiye",
      "district": null,
      "lat": 38.5393343,
      "lng": 37.4852913
    },
    {
      "name": "Mürselpınarı",
      "district": null,
      "lat": 38.6136728,
      "lng": 37.5695281
    },
    {
      "name": "mahalle",
      "district": null,
      "lat": 38.6771992,
      "lng": 37.5544476
    },
    {
      "name": "Örencik",
      "district": null,
      "lat": 38.0192417,
      "lng": 37.7543875
    },
    {
      "name": "Kerar",
      "district": null,
      "lat": 38.2294548,
      "lng": 38.8376743
    },
    {
      "name": "Kavak",
      "district": null,
      "lat": 38.1413761,
      "lng": 38.8239554
    },
    {
      "name": "Çermik",
      "district": null,
      "lat": 38.2302419,
      "lng": 38.8248711
    },
    {
      "name": "Köykent",
      "district": null,
      "lat": 38.347475,
      "lng": 37.7733352
    },
    {
      "name": "mezra",
      "district": null,
      "lat": 38.9771815,
      "lng": 38.052334
    },
    {
      "name": "Etyemez",
      "district": null,
      "lat": 38.9400678,
      "lng": 37.7778842
    },
    {
      "name": "Aşağı Günnah",
      "district": null,
      "lat": 38.9145726,
      "lng": 37.6814572
    },
    {
      "name": "Coplar",
      "district": null,
      "lat": 38.8837611,
      "lng": 37.7521871
    },
    {
      "name": "Gökdere",
      "district": null,
      "lat": 38.8824322,
      "lng": 37.7559854
    },
    {
      "name": "Günnah",
      "district": null,
      "lat": 38.9182747,
      "lng": 37.6861187
    },
    {
      "name": "Ortaköy",
      "district": null,
      "lat": 38.6605549,
      "lng": 37.4340365
    },
    {
      "name": "Alimler",
      "district": null,
      "lat": 38.9738201,
      "lng": 37.5285311
    },
    {
      "name": "Beypınarı",
      "district": null,
      "lat": 38.2433495,
      "lng": 38.4532012
    },
    {
      "name": "Zöhrap",
      "district": null,
      "lat": 39.0358884,
      "lng": 38.4497567
    },
    {
      "name": "Şevki Çiftliği",
      "district": null,
      "lat": 38.5971221,
      "lng": 38.334506
    },
    {
      "name": "Arguça",
      "district": null,
      "lat": 38.145275,
      "lng": 38.7444319
    },
    {
      "name": "İnönü",
      "district": null,
      "lat": 38.3514814,
      "lng": 38.2861577
    },
    {
      "name": "Meydanbaşı Mah.",
      "district": null,
      "lat": 38.4202801,
      "lng": 38.3630246
    },
    {
      "name": "Karabağlar Mah.",
      "district": null,
      "lat": 38.4210028,
      "lng": 38.3407876
    },
    {
      "name": "Serintepe Mah.",
      "district": null,
      "lat": 38.4332606,
      "lng": 38.3420745
    },
    {
      "name": "Battalgazi",
      "district": null,
      "lat": 38.3703993,
      "lng": 38.3400383
    },
    {
      "name": "Yıldıztepe",
      "district": null,
      "lat": 38.3533855,
      "lng": 38.3552633
    },
    {
      "name": "Karahan Mah.",
      "district": null,
      "lat": 38.4195085,
      "lng": 38.3748014
    },
    {
      "name": "Toptaş Mah.",
      "district": null,
      "lat": 38.4230767,
      "lng": 38.3711308
    },
    {
      "name": "Alacakapı Mah.",
      "district": null,
      "lat": 38.4242187,
      "lng": 38.3653911
    },
    {
      "name": "Dolamantepe Mah.",
      "district": null,
      "lat": 38.430742,
      "lng": 38.3731692
    },
    {
      "name": "Tandoğan",
      "district": null,
      "lat": 38.3574005,
      "lng": 38.3443003
    },
    {
      "name": "Çöşnük",
      "district": null,
      "lat": 38.3455847,
      "lng": 38.3463653
    },
    {
      "name": "Hacıdamı",
      "district": null,
      "lat": 38.6067942,
      "lng": 38.0192036
    },
    {
      "name": "Bahçelievler Mah.",
      "district": null,
      "lat": 38.4342271,
      "lng": 38.3778186
    },
    {
      "name": "Göztepe",
      "district": null,
      "lat": 38.3625375,
      "lng": 38.3440027
    },
    {
      "name": "Akpınar",
      "district": null,
      "lat": 38.6712601,
      "lng": 38.0701285
    },
    {
      "name": "Sarsap",
      "district": null,
      "lat": 38.6699112,
      "lng": 38.11897
    },
    {
      "name": "Aşağı Boyaca",
      "district": null,
      "lat": 38.5764255,
      "lng": 38.2417358
    },
    {
      "name": "Simolar",
      "district": null,
      "lat": 38.6177267,
      "lng": 38.1785559
    },
    {
      "name": "Çöllük",
      "district": null,
      "lat": 38.6230394,
      "lng": 38.2959468
    },
    {
      "name": "Fitne",
      "district": null,
      "lat": 38.7940743,
      "lng": 38.1672411
    },
    {
      "name": "Midemuşağı",
      "district": null,
      "lat": 38.7799002,
      "lng": 38.1007959
    },
    {
      "name": "Dere",
      "district": null,
      "lat": 38.7390482,
      "lng": 37.9813009
    },
    {
      "name": "İsmailli",
      "district": null,
      "lat": 38.7832156,
      "lng": 37.8777055
    },
    {
      "name": "Yeniköy",
      "district": null,
      "lat": 38.5652353,
      "lng": 38.2577254
    },
    {
      "name": "mezra",
      "district": null,
      "lat": 38.0663571,
      "lng": 38.7932787
    },
    {
      "name": "Yenimahalle",
      "district": null,
      "lat": 38.8178096,
      "lng": 37.9319501
    },
    {
      "name": "Karşıyaka",
      "district": null,
      "lat": 38.8184951,
      "lng": 37.9255986
    },
    {
      "name": "Fatih",
      "district": null,
      "lat": 38.8157397,
      "lng": 37.9358727
    },
    {
      "name": "Taşbaşı",
      "district": null,
      "lat": 38.8115232,
      "lng": 37.9382801
    },
    {
      "name": "Ataköy",
      "district": null,
      "lat": 38.3409842,
      "lng": 38.3081007
    },
    {
      "name": "Dabakhane",
      "district": null,
      "lat": 38.3488226,
      "lng": 38.3169662
    },
    {
      "name": "Ferhadiye",
      "district": null,
      "lat": 38.343952,
      "lng": 38.3173997
    },
    {
      "name": "Hacı Abdi",
      "district": null,
      "lat": 38.3401348,
      "lng": 38.3038379
    },
    {
      "name": "K.Hüseyinbey",
      "district": null,
      "lat": 38.3492293,
      "lng": 38.3254726
    },
    {
      "name": "Şifa",
      "district": null,
      "lat": 38.3478191,
      "lng": 38.3028894
    },
    {
      "name": "İsmetiye",
      "district": null,
      "lat": 38.3503604,
      "lng": 38.3132059
    },
    {
      "name": "Saray",
      "district": null,
      "lat": 38.3482204,
      "lng": 38.3209061
    },
    {
      "name": "Şehit Mehmet Fethi Akyüz",
      "district": null,
      "lat": 38.8168569,
      "lng": 37.9352461
    },
    {
      "name": "B.Mustafa Paşa",
      "district": null,
      "lat": 38.3437818,
      "lng": 38.3057027
    },
    {
      "name": "Aslanbey",
      "district": null,
      "lat": 38.3468225,
      "lng": 38.3087876
    },
    {
      "name": "Şıkşık",
      "district": null,
      "lat": 38.3481774,
      "lng": 38.3108071
    },
    {
      "name": "Niyazi",
      "district": null,
      "lat": 38.3494565,
      "lng": 38.3086782
    },
    {
      "name": "Abuşoğlu Mah.",
      "district": null,
      "lat": 38.4232465,
      "lng": 38.7725643
    },
    {
      "name": "Düztarla Mah.",
      "district": null,
      "lat": 38.420437,
      "lng": 38.7651089
    },
    {
      "name": "Üçdeğirmen Mah.",
      "district": null,
      "lat": 38.401406,
      "lng": 38.7771457
    },
    {
      "name": "Mahmut Dursun Mah.",
      "district": null,
      "lat": 38.4008599,
      "lng": 38.7570199
    },
    {
      "name": "Tepebaşı Mah.",
      "district": null,
      "lat": 38.3770954,
      "lng": 38.7611445
    },
    {
      "name": "Bağlıca Mah.",
      "district": null,
      "lat": 38.3970117,
      "lng": 38.7448646
    },
    {
      "name": "Yeni Mah.",
      "district": null,
      "lat": 39.0427102,
      "lng": 38.486215
    },
    {
      "name": "Aşağı Çörenge Mah.",
      "district": null,
      "lat": 39.0392625,
      "lng": 38.4845232
    },
    {
      "name": "Hocaali Mah.",
      "district": null,
      "lat": 39.0378058,
      "lng": 38.4899532
    },
    {
      "name": "Köseoğlu Mah.",
      "district": null,
      "lat": 39.0432799,
      "lng": 38.4946466
    },
    {
      "name": "Mehmet Akif Mah.",
      "district": null,
      "lat": 39.0482629,
      "lng": 38.4918131
    },
    {
      "name": "Çarşı Mah.",
      "district": null,
      "lat": 39.03807,
      "lng": 38.4996477
    },
    {
      "name": "Berenge Mah.",
      "district": null,
      "lat": 39.0371534,
      "lng": 38.4955318
    },
    {
      "name": "Aşağı Yenice Mah.",
      "district": null,
      "lat": 39.0334649,
      "lng": 38.4945819
    },
    {
      "name": "Yukarı Yenice Mah.",
      "district": null,
      "lat": 39.031005,
      "lng": 38.490044
    },
    {
      "name": "Yukarı Çörenge Mah.",
      "district": null,
      "lat": 39.0361282,
      "lng": 38.4779791
    },
    {
      "name": "Akdere",
      "district": null,
      "lat": 38.9800956,
      "lng": 37.5514626
    },
    {
      "name": "Baharlı",
      "district": null,
      "lat": 38.8054504,
      "lng": 37.9271127
    },
    {
      "name": "Başpınar",
      "district": null,
      "lat": 38.8092827,
      "lng": 37.8422784
    },
    {
      "name": "Yukarı Mahalle",
      "district": null,
      "lat": 38.8534531,
      "lng": 38.2373035
    },
    {
      "name": "Tomolar",
      "district": null,
      "lat": 38.5197149,
      "lng": 38.1292533
    },
    {
      "name": "Doğu",
      "district": null,
      "lat": 38.3440292,
      "lng": 37.9751444
    },
    {
      "name": "Başpınar",
      "district": null,
      "lat": 38.3480513,
      "lng": 37.9701233
    },
    {
      "name": "Aktepe",
      "district": null,
      "lat": 38.3443994,
      "lng": 37.9621196
    },
    {
      "name": "Kültür",
      "district": null,
      "lat": 38.342666,
      "lng": 37.9671192
    },
    {
      "name": "Banazı Mah.",
      "district": null,
      "lat": 38.295184,
      "lng": 38.2954803
    },
    {
      "name": "Horata Mah.",
      "district": null,
      "lat": 38.2963839,
      "lng": 38.2968442
    },
    {
      "name": "Tecde",
      "district": null,
      "lat": 38.316677,
      "lng": 38.2733688
    },
    {
      "name": "Gedik Mah.",
      "district": null,
      "lat": 38.3029867,
      "lng": 38.2513706
    },
    {
      "name": "Hamidiye Mah.",
      "district": null,
      "lat": 38.2959423,
      "lng": 38.2495679
    },
    {
      "name": "Hıroğlu Mah.",
      "district": null,
      "lat": 38.2939462,
      "lng": 38.250324
    },
    {
      "name": "Şıhlar",
      "district": null,
      "lat": 39.0581503,
      "lng": 38.4985828
    },
    {
      "name": "Sekizsu",
      "district": null,
      "lat": 39.0523184,
      "lng": 38.4613751
    },
    {
      "name": "Göz",
      "district": null,
      "lat": 39.0438695,
      "lng": 38.4500026
    },
    {
      "name": "Aşağı Ulupınar",
      "district": null,
      "lat": 39.0293524,
      "lng": 38.4677267
    },
    {
      "name": "Yukarı Ulupınar",
      "district": null,
      "lat": 39.0261186,
      "lng": 38.4560966
    },
    {
      "name": "Yenimahalle",
      "district": null,
      "lat": 38.7852344,
      "lng": 38.2618188
    },
    {
      "name": "Tepebağ",
      "district": null,
      "lat": 38.7830599,
      "lng": 38.2670974
    },
    {
      "name": "Yenimahalle",
      "district": null,
      "lat": 38.0897196,
      "lng": 37.8755513
    },
    {
      "name": "Karşıyaka",
      "district": null,
      "lat": 38.0878091,
      "lng": 37.8796832
    },
    {
      "name": "Esentepe",
      "district": null,
      "lat": 38.0947595,
      "lng": 37.8861486
    },
    {
      "name": "Doğu",
      "district": null,
      "lat": 38.0952925,
      "lng": 37.876934
    },
    {
      "name": "Mimar Sinan",
      "district": null,
      "lat": 38.8119422,
      "lng": 37.9319005
    },
    {
      "name": "Karadere",
      "district": null,
      "lat": 38.8241436,
      "lng": 37.9228319
    },
    {
      "name": "Şehit Feyzi",
      "district": null,
      "lat": 38.3609406,
      "lng": 38.3261489
    },
    {
      "name": "Kernek",
      "district": null,
      "lat": 38.3451231,
      "lng": 38.3259129
    },
    {
      "name": "Merkez Beydağı",
      "district": null,
      "lat": 38.3319616,
      "lng": 38.3145618
    },
    {
      "name": "Yamaç",
      "district": null,
      "lat": 38.337819,
      "lng": 38.3259772
    },
    {
      "name": "Selçuklu",
      "district": null,
      "lat": 38.3597292,
      "lng": 38.3312559
    },
    {
      "name": "Taştepe",
      "district": null,
      "lat": 38.3682424,
      "lng": 38.3229303
    },
    {
      "name": "Beylerbaşı",
      "district": null,
      "lat": 38.3588542,
      "lng": 38.3238315
    },
    {
      "name": "Kırçuval",
      "district": null,
      "lat": 38.3523771,
      "lng": 38.3229873
    },
    {
      "name": "Sancaktar",
      "district": null,
      "lat": 38.3530245,
      "lng": 38.3241534
    },
    {
      "name": "Akpınar",
      "district": null,
      "lat": 38.3513907,
      "lng": 38.3212735
    },
    {
      "name": "Sarıcıoğlu",
      "district": null,
      "lat": 38.3557109,
      "lng": 38.3212348
    },
    {
      "name": "Üçbağlar",
      "district": null,
      "lat": 38.3525211,
      "lng": 38.3278694
    },
    {
      "name": "Zafer",
      "district": null,
      "lat": 38.3501379,
      "lng": 38.3340454
    },
    {
      "name": "Fırat",
      "district": null,
      "lat": 38.3435748,
      "lng": 38.3337879
    },
    {
      "name": "Yavuz Selim",
      "district": null,
      "lat": 38.321121,
      "lng": 38.3077811
    },
    {
      "name": "Hasan Varol",
      "district": null,
      "lat": 38.3406801,
      "lng": 38.3224582
    },
    {
      "name": "İzzetiye",
      "district": null,
      "lat": 38.3471204,
      "lng": 38.3170591
    },
    {
      "name": "Hamidiye",
      "district": null,
      "lat": 38.3469271,
      "lng": 38.3140334
    },
    {
      "name": "Cevherizade",
      "district": null,
      "lat": 38.343397,
      "lng": 38.3133691
    },
    {
      "name": "K.Mustafa Paşa",
      "district": null,
      "lat": 38.3435167,
      "lng": 38.3109706
    },
    {
      "name": "Yenihamam",
      "district": null,
      "lat": 38.3499627,
      "lng": 38.3183494
    },
    {
      "name": "Halfettin",
      "district": null,
      "lat": 38.3519839,
      "lng": 38.319455
    },
    {
      "name": "Hidayet",
      "district": null,
      "lat": 38.3614454,
      "lng": 38.3185958
    },
    {
      "name": "Cirikpınar",
      "district": null,
      "lat": 38.3536683,
      "lng": 38.3147512
    },
    {
      "name": "İskender",
      "district": null,
      "lat": 38.3599311,
      "lng": 38.3146047
    },
    {
      "name": "Nuriye",
      "district": null,
      "lat": 38.34663,
      "lng": 38.3113373
    },
    {
      "name": "Kavaklıbağ",
      "district": null,
      "lat": 38.3488444,
      "lng": 38.3135993
    },
    {
      "name": "İlyas",
      "district": null,
      "lat": 38.3595946,
      "lng": 38.3100986
    },
    {
      "name": "Melekbaba",
      "district": null,
      "lat": 38.3652814,
      "lng": 38.3145189
    },
    {
      "name": "Kaynarca",
      "district": null,
      "lat": 38.3652478,
      "lng": 38.3089828
    },
    {
      "name": "Başharık",
      "district": null,
      "lat": 38.3387614,
      "lng": 38.3160209
    },
    {
      "name": "Paşaköşkü",
      "district": null,
      "lat": 38.3380209,
      "lng": 38.3095836
    },
    {
      "name": "Bentbaşı",
      "district": null,
      "lat": 38.3573722,
      "lng": 38.3067941
    },
    {
      "name": "Salköprü",
      "district": null,
      "lat": 38.3528943,
      "lng": 38.3114409
    },
    {
      "name": "Çavuşoğlu",
      "district": null,
      "lat": 38.3534698,
      "lng": 38.30379
    },
    {
      "name": "Kiltepe",
      "district": null,
      "lat": 38.3617503,
      "lng": 38.2997721
    },
    {
      "name": "Çarmuzu",
      "district": null,
      "lat": 38.369105,
      "lng": 38.3044655
    },
    {
      "name": "Yeşilkaynak",
      "district": null,
      "lat": 38.3596282,
      "lng": 38.2914733
    },
    {
      "name": "Merkez Fatih",
      "district": null,
      "lat": 38.3572053,
      "lng": 38.2892847
    },
    {
      "name": "Koşu",
      "district": null,
      "lat": 38.3582822,
      "lng": 38.2843065
    },
    {
      "name": "Seyran",
      "district": null,
      "lat": 38.3600993,
      "lng": 38.2780838
    },
    {
      "name": "Atatürk",
      "district": null,
      "lat": 38.3574577,
      "lng": 38.2759809
    },
    {
      "name": "B.Hüseyinbey",
      "district": null,
      "lat": 38.3499751,
      "lng": 38.3224447
    },
    {
      "name": "Hoca Ahmet Yesevi",
      "district": null,
      "lat": 38.367906,
      "lng": 38.2760238
    },
    {
      "name": "Çukurdere",
      "district": null,
      "lat": 38.3451231,
      "lng": 38.2994127
    },
    {
      "name": "Koyunoğlu",
      "district": null,
      "lat": 38.3445846,
      "lng": 38.2940483
    },
    {
      "name": "Cemal Gürsel",
      "district": null,
      "lat": 38.3310863,
      "lng": 38.3034467
    },
    {
      "name": "Zaviye",
      "district": null,
      "lat": 38.3386268,
      "lng": 38.2977819
    },
    {
      "name": "Şeyh Bayram",
      "district": null,
      "lat": 38.3366408,
      "lng": 38.2918596
    },
    {
      "name": "Abdulgaffar",
      "district": null,
      "lat": 38.3333082,
      "lng": 38.2914733
    },
    {
      "name": "Cevatpaşa",
      "district": null,
      "lat": 38.3405791,
      "lng": 38.2504462
    },
    {
      "name": "Cumhuriyet",
      "district": null,
      "lat": 38.3573063,
      "lng": 38.271861
    },
    {
      "name": "Gazi",
      "district": null,
      "lat": 38.3539409,
      "lng": 38.2782983
    },
    {
      "name": "Samanlı",
      "district": null,
      "lat": 38.3320626,
      "lng": 38.286581
    },
    {
      "name": "Özalper",
      "district": null,
      "lat": 38.3439451,
      "lng": 38.281002
    },
    {
      "name": "Turgut Özal",
      "district": null,
      "lat": 38.3403772,
      "lng": 38.2711314
    },
    {
      "name": "Çilesiz",
      "district": null,
      "lat": 38.3306824,
      "lng": 38.2787704
    },
    {
      "name": "Karakavak",
      "district": null,
      "lat": 38.335172,
      "lng": 38.2610259
    },
    {
      "name": "2. Organize Sanayi Bölgesi",
      "district": null,
      "lat": 38.3691174,
      "lng": 38.1889914
    },
    {
      "name": "1. Organize Sanayi Bölgesi",
      "district": null,
      "lat": 38.3403099,
      "lng": 38.189678
    },
    {
      "name": "Üniversite",
      "district": null,
      "lat": 38.3373813,
      "lng": 38.4238242
    },
    {
      "name": "İsmetpaşa",
      "district": null,
      "lat": 38.8868718,
      "lng": 37.6709512
    },
    {
      "name": "Ortapınar",
      "district": null,
      "lat": 38.8852052,
      "lng": 37.6691671
    },
    {
      "name": "İstiklal",
      "district": null,
      "lat": 38.8834518,
      "lng": 37.6705701
    },
    {
      "name": "Yeni",
      "district": null,
      "lat": 38.8803703,
      "lng": 37.6663112
    },
    {
      "name": "Bahçelievler",
      "district": null,
      "lat": 38.8686879,
      "lng": 37.6742698
    },
    {
      "name": "Mullakasım Mah.",
      "district": null,
      "lat": 38.2968117,
      "lng": 38.2470409
    },
    {
      "name": "Konak",
      "district": null,
      "lat": 38.2972264,
      "lng": 38.2962888
    },
    {
      "name": "Gökderen",
      "district": null,
      "lat": 38.4531486,
      "lng": 37.640719
    },
    {
      "name": "Hacılar",
      "district": null,
      "lat": 38.6100896,
      "lng": 37.4828841
    },
    {
      "name": "Kılıçbağı",
      "district": null,
      "lat": 38.5446574,
      "lng": 37.4652345
    },
    {
      "name": "Mehmetpaşa",
      "district": null,
      "lat": 38.5413408,
      "lng": 37.4916293
    },
    {
      "name": "Nadir",
      "district": null,
      "lat": 38.5459576,
      "lng": 37.5046119
    },
    {
      "name": "Sandıkkaya",
      "district": null,
      "lat": 38.5455924,
      "lng": 37.5106082
    },
    {
      "name": "Gökyar",
      "district": null,
      "lat": 38.5376327,
      "lng": 37.5144385
    },
    {
      "name": "Zaviye",
      "district": null,
      "lat": 38.5712641,
      "lng": 37.4882529
    },
    {
      "name": "Hacıderviş",
      "district": null,
      "lat": 38.5578996,
      "lng": 37.4940332
    },
    {
      "name": "Heyiketeği",
      "district": null,
      "lat": 38.5580228,
      "lng": 37.489571
    },
    {
      "name": "İbrahimpaşa",
      "district": null,
      "lat": 38.5562924,
      "lng": 37.4964048
    },
    {
      "name": "Sungur",
      "district": null,
      "lat": 38.5562517,
      "lng": 37.4913113
    },
    {
      "name": "Kaldırım",
      "district": null,
      "lat": 38.5492282,
      "lng": 37.4962157
    },
    {
      "name": "Boztepe",
      "district": null,
      "lat": 38.5456788,
      "lng": 38.0791151
    },
    {
      "name": "Gayret",
      "district": null,
      "lat": 38.596487,
      "lng": 38.179956
    },
    {
      "name": "Doğuş",
      "district": null,
      "lat": 38.5937873,
      "lng": 38.1804374
    },
    {
      "name": "Yeni",
      "district": null,
      "lat": 38.594252,
      "lng": 38.1831838
    },
    {
      "name": "Soğukpınar",
      "district": null,
      "lat": 38.411399,
      "lng": 38.7497663
    },
    {
      "name": "Dedeköy",
      "district": null,
      "lat": 38.4016128,
      "lng": 38.7659025
    },
    {
      "name": "Taşbaşı",
      "district": null,
      "lat": 38.1978968,
      "lng": 38.8729763
    },
    {
      "name": "Köylü",
      "district": null,
      "lat": 38.1973572,
      "lng": 38.8712919
    },
    {
      "name": "Hatip",
      "district": null,
      "lat": 38.19503,
      "lng": 38.8681269
    },
    {
      "name": "Ağalar",
      "district": null,
      "lat": 38.1959828,
      "lng": 38.8679445
    },
    {
      "name": "İshak",
      "district": null,
      "lat": 38.310094,
      "lng": 39.0394173
    },
    {
      "name": "Çolak",
      "district": null,
      "lat": 38.3091917,
      "lng": 39.0382398
    },
    {
      "name": "Bağyolu",
      "district": null,
      "lat": 38.8180019,
      "lng": 37.9348201
    },
    {
      "name": "Bahçelievler",
      "district": null,
      "lat": 38.819749,
      "lng": 37.9288816
    },
    {
      "name": "Köprülü Mehmet Paşa",
      "district": null,
      "lat": 38.8140144,
      "lng": 37.9365528
    },
    {
      "name": "Turgut Özal",
      "district": null,
      "lat": 38.8153687,
      "lng": 37.9302978
    },
    {
      "name": "Hezenek",
      "district": null,
      "lat": 39.0259186,
      "lng": 38.4759235
    },
    {
      "name": "Serge",
      "district": null,
      "lat": 39.0740774,
      "lng": 38.512187
    },
    {
      "name": "Osmanpaşa",
      "district": null,
      "lat": 39.0560175,
      "lng": 38.4718251
    },
    {
      "name": "Güneyce",
      "district": null,
      "lat": 38.4249494,
      "lng": 38.7771034
    },
    {
      "name": "İstiklal",
      "district": null,
      "lat": 38.3465329,
      "lng": 38.319225
    },
    {
      "name": "Kıraç",
      "district": null,
      "lat": 38.4039,
      "lng": 38.3178574
    },
    {
      "name": "Kaymakam Osman Bilgin",
      "district": null,
      "lat": 38.4165731,
      "lng": 38.7541598
    },
    {
      "name": "Şeyhli",
      "district": null,
      "lat": 38.4661766,
      "lng": 37.5849024
    }
  ],
  "Erzincan": [
    {
      "name": "Gözeler",
      "district": null,
      "lat": 39.8310148,
      "lng": 40.1853995
    },
    {
      "name": "Işıkpınar",
      "district": null,
      "lat": 39.7909169,
      "lng": 39.4694139
    },
    {
      "name": "Keklikkayası",
      "district": null,
      "lat": 39.7898049,
      "lng": 39.447997
    },
    {
      "name": "Buğdaylı",
      "district": null,
      "lat": 39.750586,
      "lng": 39.5436903
    },
    {
      "name": "Başpınar",
      "district": null,
      "lat": 39.7646097,
      "lng": 39.5799816
    },
    {
      "name": "Yalnızbağ",
      "district": null,
      "lat": 39.8025497,
      "lng": 39.4091066
    },
    {
      "name": "Akyazı",
      "district": null,
      "lat": 39.7296045,
      "lng": 39.560211
    },
    {
      "name": "Cirgişin",
      "district": null,
      "lat": 39.6121612,
      "lng": 39.040971
    },
    {
      "name": "Aşağı Ağıldere",
      "district": null,
      "lat": 39.537491,
      "lng": 38.311675
    },
    {
      "name": "Büyük Çakırman",
      "district": null,
      "lat": 39.7396101,
      "lng": 39.5981688
    },
    {
      "name": "Geyikli",
      "district": null,
      "lat": 39.7209535,
      "lng": 39.6571417
    },
    {
      "name": "Güllüce",
      "district": null,
      "lat": 39.6942818,
      "lng": 39.534495
    },
    {
      "name": "Küçükkadağan",
      "district": null,
      "lat": 39.6354067,
      "lng": 39.6711202
    },
    {
      "name": "Sucuali",
      "district": null,
      "lat": 39.71303,
      "lng": 40.2088145
    },
    {
      "name": "Yollarüstü",
      "district": null,
      "lat": 39.6211857,
      "lng": 40.1843778
    },
    {
      "name": "Terzibaba",
      "district": null,
      "lat": 39.71553,
      "lng": 39.568981
    },
    {
      "name": "Davarlı",
      "district": null,
      "lat": 39.843445,
      "lng": 39.343899
    },
    {
      "name": "Derebağ",
      "district": null,
      "lat": 39.601353,
      "lng": 39.77446
    },
    {
      "name": "Hürrem Palangası",
      "district": null,
      "lat": 39.788784,
      "lng": 39.377747
    },
    {
      "name": "Mertekli",
      "district": null,
      "lat": 39.644718,
      "lng": 39.725265
    },
    {
      "name": "Bahçecik",
      "district": null,
      "lat": 39.4444286,
      "lng": 38.5037144
    },
    {
      "name": "Çakmaklı",
      "district": null,
      "lat": 39.7207034,
      "lng": 40.45116
    },
    {
      "name": "Yeni Çiğdemli",
      "district": null,
      "lat": 39.6109633,
      "lng": 38.7460699
    },
    {
      "name": "Mahmutlu",
      "district": null,
      "lat": 39.671654,
      "lng": 39.580303
    },
    {
      "name": "Ağılllar",
      "district": null,
      "lat": 39.335564,
      "lng": 38.355995
    },
    {
      "name": "Çaltı",
      "district": null,
      "lat": 39.3656618,
      "lng": 38.3406417
    },
    {
      "name": "Çay",
      "district": null,
      "lat": 39.6332471,
      "lng": 38.7825128
    },
    {
      "name": "Yeni Söğütözü",
      "district": null,
      "lat": 39.697837,
      "lng": 39.3993569
    },
    {
      "name": "Yeni Gölkaynak",
      "district": null,
      "lat": 39.5986842,
      "lng": 38.9672721
    },
    {
      "name": "İstasyon",
      "district": null,
      "lat": 39.5712836,
      "lng": 38.8664559
    },
    {
      "name": "Akçiçek",
      "district": null,
      "lat": 39.1300394,
      "lng": 38.5892877
    },
    {
      "name": "Kızılçukur",
      "district": null,
      "lat": 39.1358473,
      "lng": 38.5721875
    },
    {
      "name": "Salkımlı",
      "district": null,
      "lat": 39.0237003,
      "lng": 38.7256577
    },
    {
      "name": "Aşağı Yuvacık",
      "district": null,
      "lat": 39.1638275,
      "lng": 38.6344325
    },
    {
      "name": "İskender",
      "district": null,
      "lat": 39.9913181,
      "lng": 40.1428705
    },
    {
      "name": "Elmacık",
      "district": null,
      "lat": 39.4995801,
      "lng": 38.5732379
    },
    {
      "name": "Taşkonak",
      "district": null,
      "lat": 39.4831358,
      "lng": 38.6884052
    },
    {
      "name": "Yeşilyurt",
      "district": null,
      "lat": 39.4802233,
      "lng": 38.5900289
    },
    {
      "name": "Yukarı Yuvacık",
      "district": null,
      "lat": 39.1639882,
      "lng": 38.5873481
    },
    {
      "name": "Yeniköy",
      "district": null,
      "lat": 39.2590658,
      "lng": 38.3988921
    },
    {
      "name": "Ulaş",
      "district": null,
      "lat": 39.3173513,
      "lng": 38.4871524
    },
    {
      "name": "Bayırlı",
      "district": null,
      "lat": 39.7947372,
      "lng": 38.8369761
    },
    {
      "name": "Aşağı Yıldızören",
      "district": null,
      "lat": 39.9079824,
      "lng": 38.5164846
    },
    {
      "name": "Eski Elaldı",
      "district": null,
      "lat": 39.7155606,
      "lng": 40.4847262
    },
    {
      "name": "Yeni Küllüce",
      "district": null,
      "lat": 39.6779833,
      "lng": 40.5497109
    },
    {
      "name": "Zincirli",
      "district": null,
      "lat": 39.8069989,
      "lng": 40.4134415
    },
    {
      "name": "Yeni Yazıören",
      "district": null,
      "lat": 39.9073442,
      "lng": 40.3521139
    },
    {
      "name": "Balözü",
      "district": null,
      "lat": 39.6230189,
      "lng": 40.1303707
    },
    {
      "name": "Kösebey",
      "district": null,
      "lat": 39.634875,
      "lng": 40.2845796
    },
    {
      "name": "Palanga",
      "district": null,
      "lat": 39.6642264,
      "lng": 40.12543
    },
    {
      "name": "İstasyon",
      "district": null,
      "lat": 39.5372596,
      "lng": 38.7502555
    },
    {
      "name": "İstasyon Mah.",
      "district": null,
      "lat": 39.4737337,
      "lng": 38.5627783
    },
    {
      "name": "Bektaşlı",
      "district": null,
      "lat": 39.9926837,
      "lng": 38.8897539
    },
    {
      "name": "Çavuşlu",
      "district": null,
      "lat": 39.7090908,
      "lng": 39.7002575
    },
    {
      "name": "Çay",
      "district": null,
      "lat": 39.7108091,
      "lng": 39.7031216
    },
    {
      "name": "Babacan",
      "district": null,
      "lat": 39.7096463,
      "lng": 39.7039697
    },
    {
      "name": "Bahçeşehir Mah.",
      "district": null,
      "lat": 39.7113116,
      "lng": 39.6905579
    },
    {
      "name": "Kova",
      "district": null,
      "lat": 39.8889158,
      "lng": 38.9555087
    },
    {
      "name": "Yeni Yurtbaşı",
      "district": null,
      "lat": 39.890214,
      "lng": 38.9481852
    },
    {
      "name": "Köseler",
      "district": null,
      "lat": 39.6132724,
      "lng": 39.2042143
    },
    {
      "name": "Yeni Yastıktepe",
      "district": null,
      "lat": 39.6322848,
      "lng": 39.2735913
    },
    {
      "name": "Yukarı Beşikli",
      "district": null,
      "lat": 39.6596934,
      "lng": 39.296391
    },
    {
      "name": "Evciler",
      "district": null,
      "lat": 39.7775971,
      "lng": 39.2835239
    },
    {
      "name": "Dereyurt",
      "district": null,
      "lat": 39.818423,
      "lng": 39.4325603
    },
    {
      "name": "Osman Gazi",
      "district": null,
      "lat": 39.7959642,
      "lng": 39.4164473
    },
    {
      "name": "Bulutlu",
      "district": null,
      "lat": 39.7852291,
      "lng": 39.4292944
    },
    {
      "name": "Çukurkuyu",
      "district": null,
      "lat": 39.7782196,
      "lng": 39.4346406
    },
    {
      "name": "Hoca Ahmet Yesevi",
      "district": null,
      "lat": 39.7742479,
      "lng": 39.4230185
    },
    {
      "name": "Hamidiye",
      "district": null,
      "lat": 39.7589227,
      "lng": 39.45825
    },
    {
      "name": "Demirkent",
      "district": null,
      "lat": 39.7697921,
      "lng": 39.4668828
    },
    {
      "name": "Ulalar",
      "district": null,
      "lat": 39.753111,
      "lng": 39.44669
    },
    {
      "name": "Aziz Baba",
      "district": null,
      "lat": 39.7313648,
      "lng": 39.458471
    },
    {
      "name": "Üçkonak",
      "district": null,
      "lat": 39.7276977,
      "lng": 39.4545535
    },
    {
      "name": "Cemal Gürsel",
      "district": null,
      "lat": 39.7179414,
      "lng": 39.4428523
    },
    {
      "name": "Munzur",
      "district": null,
      "lat": 39.7528373,
      "lng": 39.5383364
    },
    {
      "name": "Gazi",
      "district": null,
      "lat": 39.7539545,
      "lng": 39.5267459
    },
    {
      "name": "Yenidoğan",
      "district": null,
      "lat": 39.7483088,
      "lng": 39.5259301
    },
    {
      "name": "Aktoprak",
      "district": null,
      "lat": 39.7262933,
      "lng": 39.5604818
    },
    {
      "name": "Ersevenler",
      "district": null,
      "lat": 39.7332104,
      "lng": 39.5089384
    },
    {
      "name": "Yeşilyurt",
      "district": null,
      "lat": 39.6664189,
      "lng": 39.5495054
    },
    {
      "name": "Tepecik",
      "district": null,
      "lat": 39.6190417,
      "lng": 39.5744213
    },
    {
      "name": "Yamaçlı",
      "district": null,
      "lat": 39.606634,
      "lng": 39.730039
    },
    {
      "name": "Şelale",
      "district": null,
      "lat": 39.5888465,
      "lng": 39.7248583
    },
    {
      "name": "Erdene",
      "district": null,
      "lat": 39.6021453,
      "lng": 39.7517608
    },
    {
      "name": "Üçler",
      "district": null,
      "lat": 39.7121749,
      "lng": 39.6989884
    },
    {
      "name": "Oruçlu",
      "district": null,
      "lat": 39.7083144,
      "lng": 39.7038482
    },
    {
      "name": "Ciminli Baba",
      "district": null,
      "lat": 39.7065384,
      "lng": 39.6943914
    },
    {
      "name": "Yunus Emre Mah.",
      "district": null,
      "lat": 39.6952725,
      "lng": 39.6835197
    },
    {
      "name": "Terzibaba Mah.",
      "district": null,
      "lat": 39.6973601,
      "lng": 39.6862811
    },
    {
      "name": "Süleymanlı",
      "district": null,
      "lat": 39.6751194,
      "lng": 39.6678641
    },
    {
      "name": "Fırat",
      "district": null,
      "lat": 39.646161,
      "lng": 39.6819888
    },
    {
      "name": "Büyük Kadağan",
      "district": null,
      "lat": 39.6488792,
      "lng": 39.6805918
    },
    {
      "name": "Barış",
      "district": null,
      "lat": 39.7292884,
      "lng": 39.5180685
    },
    {
      "name": "Bayrak",
      "district": null,
      "lat": 39.7136153,
      "lng": 39.5340225
    },
    {
      "name": "Sancak Mah.",
      "district": null,
      "lat": 39.7132821,
      "lng": 39.5387932
    },
    {
      "name": "Şehit Cengiz Topel",
      "district": null,
      "lat": 39.7266411,
      "lng": 39.5241386
    },
    {
      "name": "Alsancak Mah.",
      "district": null,
      "lat": 39.6474143,
      "lng": 39.5187291
    },
    {
      "name": "Mengüceli",
      "district": null,
      "lat": 39.7408186,
      "lng": 39.5223929
    },
    {
      "name": "Yunus Emre",
      "district": null,
      "lat": 39.753243,
      "lng": 39.512914
    },
    {
      "name": "Başbağlar",
      "district": null,
      "lat": 39.7579599,
      "lng": 39.5027783
    },
    {
      "name": "Akşemsettin",
      "district": null,
      "lat": 39.7499295,
      "lng": 39.5111634
    },
    {
      "name": "Fatih",
      "district": null,
      "lat": 39.746809,
      "lng": 39.5112087
    },
    {
      "name": "İzzetpaşa",
      "district": null,
      "lat": 39.7400033,
      "lng": 39.5086913
    },
    {
      "name": "Barbaros",
      "district": null,
      "lat": 39.7523185,
      "lng": 39.5027421
    },
    {
      "name": "Mimar Sinan",
      "district": null,
      "lat": 39.7436906,
      "lng": 39.4689053
    },
    {
      "name": "Ergenekon",
      "district": null,
      "lat": 39.7561032,
      "lng": 39.4660726
    },
    {
      "name": "Yavuz Selim",
      "district": null,
      "lat": 39.754622,
      "lng": 39.4709747
    },
    {
      "name": "Bahçelievler",
      "district": null,
      "lat": 39.7501108,
      "lng": 39.474875
    },
    {
      "name": "Halitpaşa",
      "district": null,
      "lat": 39.7451428,
      "lng": 39.4778999
    },
    {
      "name": "Taksim",
      "district": null,
      "lat": 39.7376604,
      "lng": 39.4858464
    },
    {
      "name": "Çarşı",
      "district": null,
      "lat": 39.7380388,
      "lng": 39.4920016
    },
    {
      "name": "Gülabibey",
      "district": null,
      "lat": 39.7406802,
      "lng": 39.493018
    },
    {
      "name": "Karaağaç",
      "district": null,
      "lat": 39.7443578,
      "lng": 39.494798
    },
    {
      "name": "Atatürk",
      "district": null,
      "lat": 39.7481549,
      "lng": 39.4969524
    },
    {
      "name": "Cumhuriyet",
      "district": null,
      "lat": 39.7544387,
      "lng": 39.4958646
    },
    {
      "name": "Kazım Karabekir",
      "district": null,
      "lat": 39.7621662,
      "lng": 39.4906513
    },
    {
      "name": "Arslanlı",
      "district": null,
      "lat": 39.7587102,
      "lng": 39.484368
    },
    {
      "name": "Yenimahalle",
      "district": null,
      "lat": 39.75782,
      "lng": 39.4906416
    },
    {
      "name": "İnönü",
      "district": null,
      "lat": 39.7495309,
      "lng": 39.4863814
    },
    {
      "name": "Kızılay",
      "district": null,
      "lat": 39.7447949,
      "lng": 39.4855449
    },
    {
      "name": "Hocabey",
      "district": null,
      "lat": 39.7413606,
      "lng": 39.484582
    },
    {
      "name": "Kurutilek",
      "district": null,
      "lat": 39.773129,
      "lng": 39.4935233
    },
    {
      "name": "Menderes",
      "district": null,
      "lat": 39.764706,
      "lng": 39.4732073
    },
    {
      "name": "Selçuklu Mah.",
      "district": null,
      "lat": 39.6417208,
      "lng": 39.5254339
    },
    {
      "name": "Şehitserhat Mah.",
      "district": null,
      "lat": 39.6390504,
      "lng": 39.5253659
    },
    {
      "name": "Demetevler",
      "district": null,
      "lat": 39.7500941,
      "lng": 39.5202488
    },
    {
      "name": "Osmanlı",
      "district": null,
      "lat": 39.761861,
      "lng": 39.4645703
    },
    {
      "name": "Kavakyolu",
      "district": null,
      "lat": 39.7763041,
      "lng": 39.458371
    },
    {
      "name": "Paşa",
      "district": null,
      "lat": 39.7693115,
      "lng": 39.4562008
    },
    {
      "name": "Gölcük",
      "district": null,
      "lat": 39.7562869,
      "lng": 39.4532051
    },
    {
      "name": "Özgürlük",
      "district": null,
      "lat": 39.7510821,
      "lng": 39.453278
    },
    {
      "name": "Mustafa Kemal Paşa",
      "district": null,
      "lat": 39.7444234,
      "lng": 39.4579078
    },
    {
      "name": "Şehit Serhat Yurtbaşı",
      "district": null,
      "lat": 39.7918642,
      "lng": 39.4261608
    },
    {
      "name": "Esentepe",
      "district": null,
      "lat": 39.7938269,
      "lng": 39.4215748
    },
    {
      "name": "Hancı",
      "district": null,
      "lat": 39.7816034,
      "lng": 39.439972
    },
    {
      "name": "Sarıgöl",
      "district": null,
      "lat": 39.7736729,
      "lng": 39.4396619
    },
    {
      "name": "Bozyazı",
      "district": null,
      "lat": 39.7736397,
      "lng": 39.4275489
    },
    {
      "name": "Ertuğrul Gazi",
      "district": null,
      "lat": 39.7728376,
      "lng": 39.4186523
    },
    {
      "name": "Muhsin Yazıcıoğlu Mah.",
      "district": null,
      "lat": 39.7140404,
      "lng": 39.656627
    },
    {
      "name": "Piri Sami Mah.",
      "district": null,
      "lat": 39.6899488,
      "lng": 39.6762322
    },
    {
      "name": "Mimar Sinan Mah.",
      "district": null,
      "lat": 39.6848616,
      "lng": 39.6832903
    },
    {
      "name": "Fatih Mah.",
      "district": null,
      "lat": 39.6997771,
      "lng": 39.6812674
    },
    {
      "name": "Yavuz Selim Mah.",
      "district": null,
      "lat": 39.6991943,
      "lng": 39.6749
    },
    {
      "name": "Eskişıhlı",
      "district": null,
      "lat": 39.6364778,
      "lng": 39.7133277
    },
    {
      "name": "Yoğurtlu",
      "district": null,
      "lat": 39.7131031,
      "lng": 39.5351461
    },
    {
      "name": "Geçit",
      "district": null,
      "lat": 39.7539153,
      "lng": 39.5258186
    },
    {
      "name": "Akyazı",
      "district": null,
      "lat": 39.7280396,
      "lng": 39.5602488
    },
    {
      "name": "Demirkent",
      "district": null,
      "lat": 39.7682659,
      "lng": 39.4675391
    },
    {
      "name": "Kavakyolu",
      "district": null,
      "lat": 39.7734392,
      "lng": 39.4547512
    },
    {
      "name": "Çukurkuyu",
      "district": null,
      "lat": 39.7755205,
      "lng": 39.425008
    },
    {
      "name": "Yalnızbağ",
      "district": null,
      "lat": 39.7986483,
      "lng": 39.4128946
    },
    {
      "name": "Köprübaşı",
      "district": null,
      "lat": 39.6890142,
      "lng": 39.504689
    },
    {
      "name": "Pınarbaşı",
      "district": null,
      "lat": 39.6672541,
      "lng": 39.6796047
    },
    {
      "name": "İstasyon",
      "district": null,
      "lat": 39.6647148,
      "lng": 39.6758138
    },
    {
      "name": "Yukarı Gemecik",
      "district": null,
      "lat": 39.8781602,
      "lng": 38.4244251
    },
    {
      "name": "Yazı",
      "district": null,
      "lat": 39.9213678,
      "lng": 38.4646797
    },
    {
      "name": "Gölcük",
      "district": null,
      "lat": 39.9064279,
      "lng": 39.001894
    },
    {
      "name": "Yanık",
      "district": null,
      "lat": 39.9426057,
      "lng": 39.1252649
    },
    {
      "name": "Bakacak",
      "district": null,
      "lat": 39.89986,
      "lng": 38.8729333
    },
    {
      "name": "Ekindere",
      "district": null,
      "lat": 39.1675848,
      "lng": 38.7576413
    },
    {
      "name": "Ariki",
      "district": null,
      "lat": 39.2456815,
      "lng": 38.4957504
    },
    {
      "name": "Bahçe",
      "district": null,
      "lat": 39.236242,
      "lng": 38.4913409
    },
    {
      "name": "Yavuzselim",
      "district": null,
      "lat": 39.7676778,
      "lng": 40.3918361
    },
    {
      "name": "Yavuzselim",
      "district": null,
      "lat": 39.7676778,
      "lng": 40.3918361
    },
    {
      "name": "Araf",
      "district": null,
      "lat": 39.583358,
      "lng": 39.1086566
    },
    {
      "name": "Ulalar",
      "district": null,
      "lat": 39.7522877,
      "lng": 39.4471407
    },
    {
      "name": "Barbaros",
      "district": null,
      "lat": 39.802886,
      "lng": 40.0374623
    },
    {
      "name": "Mektepönü",
      "district": null,
      "lat": 39.6015232,
      "lng": 39.0418836
    },
    {
      "name": "Ortagedik",
      "district": null,
      "lat": 39.5927017,
      "lng": 39.0431265
    },
    {
      "name": "Pörhenkbaşı",
      "district": null,
      "lat": 39.5974212,
      "lng": 39.0418436
    },
    {
      "name": "Aşağıgedik",
      "district": null,
      "lat": 39.5999242,
      "lng": 39.0454364
    },
    {
      "name": "Yukarı",
      "district": null,
      "lat": 39.5632314,
      "lng": 39.0564195
    },
    {
      "name": "Karşıbağ",
      "district": null,
      "lat": 39.5959269,
      "lng": 39.03646
    },
    {
      "name": "Çarşı",
      "district": null,
      "lat": 39.6029431,
      "lng": 39.0347271
    },
    {
      "name": "Göğüsbağı",
      "district": null,
      "lat": 39.6025925,
      "lng": 39.0236747
    },
    {
      "name": "Beklimçay",
      "district": null,
      "lat": 39.5984342,
      "lng": 39.0199564
    },
    {
      "name": "Beşiktaş",
      "district": null,
      "lat": 39.681765,
      "lng": 39.5139846
    }
  ],
  "Tunceli": [
    {
      "name": "Kırmızıköprü",
      "district": null,
      "lat": 39.3917751,
      "lng": 39.825616
    },
    {
      "name": "Yayık",
      "district": null,
      "lat": 39.3802385,
      "lng": 39.1747784
    },
    {
      "name": "Saçaklı",
      "district": null,
      "lat": 39.3254155,
      "lng": 39.0759441
    },
    {
      "name": "Bük",
      "district": null,
      "lat": 39.3416164,
      "lng": 39.2953317
    },
    {
      "name": "Güneşli",
      "district": null,
      "lat": 39.3226379,
      "lng": 39.0326975
    },
    {
      "name": "Meşedibi",
      "district": null,
      "lat": 39.3370596,
      "lng": 39.2008218
    },
    {
      "name": "Aktuluk",
      "district": null,
      "lat": 39.0404253,
      "lng": 39.5045116
    },
    {
      "name": "Yenimahalle",
      "district": null,
      "lat": 39.0132684,
      "lng": 38.9193975
    },
    {
      "name": "Güneyharman",
      "district": null,
      "lat": 38.9095242,
      "lng": 39.7482967
    },
    {
      "name": "Güneşdere",
      "district": null,
      "lat": 38.8872858,
      "lng": 39.683764
    },
    {
      "name": "Karabulut",
      "district": null,
      "lat": 38.9079085,
      "lng": 39.7665664
    },
    {
      "name": "Kepektaşı",
      "district": null,
      "lat": 38.8597068,
      "lng": 39.7111045
    },
    {
      "name": "Kuşçu",
      "district": null,
      "lat": 38.8663124,
      "lng": 39.7258518
    },
    {
      "name": "Örs",
      "district": null,
      "lat": 38.9087209,
      "lng": 39.7269914
    },
    {
      "name": "Bozkıra",
      "district": null,
      "lat": 39.3000498,
      "lng": 39.0119785
    },
    {
      "name": "Aşağı Kacarlar",
      "district": null,
      "lat": 38.9407925,
      "lng": 39.5262977
    },
    {
      "name": "Karadere",
      "district": null,
      "lat": 38.8822891,
      "lng": 39.2792278
    },
    {
      "name": "mahalle",
      "district": null,
      "lat": 38.877762,
      "lng": 39.661968
    },
    {
      "name": "Elmalık",
      "district": null,
      "lat": 38.8728323,
      "lng": 39.7837045
    },
    {
      "name": "Eski Bozağaç",
      "district": null,
      "lat": 39.0423686,
      "lng": 39.0839933
    },
    {
      "name": "Atatürk Mah.",
      "district": null,
      "lat": 39.0809098,
      "lng": 39.5371464
    },
    {
      "name": "Cumhuriyet Mah.",
      "district": null,
      "lat": 39.1042328,
      "lng": 39.5374418
    },
    {
      "name": "Alibaba Mah.",
      "district": null,
      "lat": 39.1072288,
      "lng": 39.5426368
    },
    {
      "name": "Moğultay Mah.",
      "district": null,
      "lat": 39.1073348,
      "lng": 39.5484603
    },
    {
      "name": "Esentepe Mah.",
      "district": null,
      "lat": 39.1056455,
      "lng": 39.5528285
    },
    {
      "name": "İsmet İnönü Mah.",
      "district": null,
      "lat": 39.1037343,
      "lng": 39.5784768
    },
    {
      "name": "Karataş",
      "district": null,
      "lat": 39.4049138,
      "lng": 39.2508681
    },
    {
      "name": "Uluca",
      "district": null,
      "lat": 39.3362918,
      "lng": 39.1856116
    },
    {
      "name": "Yeni",
      "district": null,
      "lat": 39.3993062,
      "lng": 39.2415591
    },
    {
      "name": "Yılanlı",
      "district": null,
      "lat": 39.4009733,
      "lng": 39.2289026
    },
    {
      "name": "Çayır",
      "district": null,
      "lat": 39.401396,
      "lng": 39.235408
    },
    {
      "name": "Camikebir Mah.",
      "district": null,
      "lat": 38.8531912,
      "lng": 39.3345326
    },
    {
      "name": "Derebaşı Mah.",
      "district": null,
      "lat": 38.8451725,
      "lng": 39.3427683
    },
    {
      "name": "İstiklal Mah.",
      "district": null,
      "lat": 38.8677068,
      "lng": 39.3245813
    },
    {
      "name": "Soğukpınar Mah.",
      "district": null,
      "lat": 38.8655058,
      "lng": 39.3153044
    },
    {
      "name": "Kaledibi Mah.",
      "district": null,
      "lat": 38.8568366,
      "lng": 39.290375
    },
    {
      "name": "Yeni Mah.",
      "district": null,
      "lat": 39.1120143,
      "lng": 39.550446
    },
    {
      "name": "Şindoru",
      "district": null,
      "lat": 39.5545638,
      "lng": 40.0269058
    },
    {
      "name": "Aydın",
      "district": null,
      "lat": 39.2956713,
      "lng": 39.0364515
    },
    {
      "name": "Hacibirim",
      "district": null,
      "lat": 39.297519,
      "lng": 39.1462062
    },
    {
      "name": "Hüllükuşağı",
      "district": null,
      "lat": 39.3004537,
      "lng": 39.1330144
    },
    {
      "name": "Karadere",
      "district": null,
      "lat": 39.2944219,
      "lng": 39.1359417
    },
    {
      "name": "Topağaç",
      "district": null,
      "lat": 39.2901402,
      "lng": 39.1307067
    },
    {
      "name": "Tuzluca",
      "district": null,
      "lat": 39.300446,
      "lng": 39.0596621
    },
    {
      "name": "Yeni Mah.",
      "district": null,
      "lat": 39.0165143,
      "lng": 39.6065656
    },
    {
      "name": "Eltihatun Mah.",
      "district": null,
      "lat": 39.0198212,
      "lng": 39.605495
    },
    {
      "name": "mahalle",
      "district": null,
      "lat": 38.9178919,
      "lng": 39.6186626
    },
    {
      "name": "Bulgurlu",
      "district": null,
      "lat": 39.1505535,
      "lng": 39.2600897
    },
    {
      "name": "Fikripaşa",
      "district": null,
      "lat": 39.1090804,
      "lng": 39.216933
    },
    {
      "name": "Diyap Ağa",
      "district": null,
      "lat": 39.1067872,
      "lng": 39.2187958
    },
    {
      "name": "Köprübaşı",
      "district": null,
      "lat": 39.1075673,
      "lng": 39.210237
    },
    {
      "name": "Dr. Alpay Karaağaç",
      "district": null,
      "lat": 39.1076938,
      "lng": 39.221771
    },
    {
      "name": "Merkez",
      "district": null,
      "lat": 39.1798795,
      "lng": 39.8296932
    }
  ]
}
